{"type":"FeatureCollection","features":[
{"type":"Feature","id":"104151","geometry":{"type":"Point","coordinates":[-111.940011,33.421922]}, "properties":{"name":"Arizona State University-Tempe","addr":"University Drive and Mill Avenue","city":"Tempe","state":"AZ","zip_code":"85287","website":"www.asu.edu/","price_calc":"students.asu.edu/costs","dept_site":"http://cidse.engineering.asu.edu/","total_cs_fac":"23"}},
{"type":"Feature","id":"104179","geometry":{"type":"Point","coordinates":[-110.950769,32.232071]}, "properties":{"name":"University of Arizona","addr":"1401 E University","city":"Tucson","state":"AZ","zip_code":"85721-0066","website":"www.arizona.edu","price_calc":"oirps.arizona.edu/npc.html","dept_site":"https://www.cs.arizona.edu/","total_cs_fac":"18"}},
{"type":"Feature","id":"110404","geometry":{"type":"Point","coordinates":[-118.125740,34.139275]}, "properties":{"name":"California Institute of Technology","addr":"1200 E California Blvd","city":"Pasadena","state":"CA","zip_code":"91125","website":"www.caltech.edu","price_calc":"www.finaid.caltech.edu/","dept_site":"http://www.cms.caltech.edu/","total_cs_fac":"15"}},
{"type":"Feature","id":"110635","geometry":{"type":"Point","coordinates":[-122.260401,37.871519]}, "properties":{"name":"University of California-Berkeley","addr":"200 California Hall","city":"Berkeley","state":"CA","zip_code":"94720","website":"www.berkeley.edu","price_calc":"calculator.berkeley.edu/","dept_site":"http://www.cs.berkeley.edu/","total_cs_fac":"54"}},
{"type":"Feature","id":"110644","geometry":{"type":"Point","coordinates":[-121.751958,38.539895]}, "properties":{"name":"University of California-Davis","addr":"One Shields Avenue","city":"Davis","state":"CA","zip_code":"95616-8678","website":"www.ucdavis.edu","price_calc":"financialaid.ucdavis.edu/aidEstimator/ucdcalcmain.aspx","dept_site":"http://www.cs.ucdavis.edu/","total_cs_fac":"31"}},
{"type":"Feature","id":"110653","geometry":{"type":"Point","coordinates":[-117.841248,33.648434]}, "properties":{"name":"University of California-Irvine","addr":"501 Aldrich Hall","city":"Irvine","state":"CA","zip_code":"92697","website":"www.uci.edu/","price_calc":"www.ofas.uci.edu/content/Calculator.aspx","dept_site":"http://www.cs.uci.edu/","total_cs_fac":"61"}},
{"type":"Feature","id":"110662","geometry":{"type":"Point","coordinates":[-118.443901,34.068892]}, "properties":{"name":"University of California-Los Angeles","addr":"405 Hilgard Ave","city":"Los Angeles","state":"CA","zip_code":"90095-1405","website":"www.ucla.edu/","price_calc":"www.fao.ucla.edu/aid_estimator/","dept_site":"http://www.cs.ucla.edu/","total_cs_fac":"40"}},
{"type":"Feature","id":"110680","geometry":{"type":"Point","coordinates":[-117.237793,32.876598]}, "properties":{"name":"University of California-San Diego","addr":"9500 Gilman Dr","city":"La Jolla","state":"CA","zip_code":"92093","website":"www.ucsd.edu","price_calc":"students.ucsd.edu/finances/financial-aid/forms/calculator.html","dept_site":"http://www.cse.ucsd.edu/","total_cs_fac":"58"}},
{"type":"Feature","id":"110705","geometry":{"type":"Point","coordinates":[-119.848031,34.415402]}, "properties":{"name":"University of California-Santa Barbara","addr":"5221 Cheadle Hall","city":"Santa Barbara","state":"CA","zip_code":"93106","website":"www.ucsb.edu","price_calc":"www.finaid.ucsb.edu/Prospective/AidEstimator.aspx","dept_site":"https://www.cs.ucsb.edu/","total_cs_fac":"32"}},
{"type":"Feature","id":"123961","geometry":{"type":"Point","coordinates":[-118.283858,34.021058]}, "properties":{"name":"University of Southern California","addr":"University Park","city":"Los Angeles","state":"CA","zip_code":"90089","website":"www.usc.edu/","price_calc":"www.usc.edu/admission/fa/applying_receiving/undergraduates1/netpricecalculator.html","dept_site":"http://www.cs.usc.edu/","total_cs_fac":"54"}},
{"type":"Feature","id":"126614","geometry":{"type":"Point","coordinates":[-105.267061,40.004415]}, "properties":{"name":"University of Colorado Boulder","addr":"Regent Drive at Broadway","city":"Boulder","state":"CO","zip_code":"80309-0017","website":"www.colorado.edu","price_calc":"www.collegeportraits.org/CO/CU-Boulder/estimator/agree","dept_site":"http://www.colorado.edu/cs/","total_cs_fac":"34"}},
{"type":"Feature","id":"130794","geometry":{"type":"Point","coordinates":[-72.926688,41.311158]}, "properties":{"name":"Yale University","addr":"Woodbridge Hall","city":"New Haven","state":"CT","zip_code":"06520","website":"www.yale.edu","price_calc":"admissions.yale.edu/yale-net-price-calculator","dept_site":"http://cpsc.yale.edu/","total_cs_fac":"20"}},
{"type":"Feature","id":"134130","geometry":{"type":"Point","coordinates":[-82.361195,29.638248]}, "properties":{"name":"University of Florida","addr":" ","city":"Gainesville","state":"FL","zip_code":"32611","website":"www.ufl.edu/","price_calc":"npc.collegeboard.org/student/app/ufl","dept_site":"https://www.cise.ufl.edu/","total_cs_fac":"40"}},
{"type":"Feature","id":"139755","geometry":{"type":"Point","coordinates":[-84.396019,33.773732]}, "properties":{"name":"Georgia Institute of Technology-Main Campus","addr":"225 North Ave","city":"Atlanta","state":"GA","zip_code":"30332-0530","website":"www.gatech.edu","price_calc":"www.admission.gatech.edu/npcalc/npcalc1011.htm","dept_site":"http://www.cc.gatech.edu/","total_cs_fac":"92"}},
{"type":"Feature","id":"144050","geometry":{"type":"Point","coordinates":[-87.601196,41.789170]}, "properties":{"name":"University of Chicago","addr":"5801 S Ellis Ave","city":"Chicago","state":"IL","zip_code":"60637","website":"WWW.UCHICAGO.EDU","price_calc":"collegeadmissions.uchicago.edu/costs/apply/calculate.shtml","dept_site":"https://www.cs.uchicago.edu/","total_cs_fac":"29"}},
{"type":"Feature","id":"145637","geometry":{"type":"Point","coordinates":[-88.230309,40.108864]}, "properties":{"name":"University of Illinois at Urbana-Champaign","addr":"601 E John Street","city":"Champaign","state":"IL","zip_code":"61820-5711","website":"www.illinois.edu/","price_calc":"www.osfa.illinois.edu/aid/NPC/NPC.asp","dept_site":"http://cs.illinois.edu/","total_cs_fac":"57"}},
{"type":"Feature","id":"147767","geometry":{"type":"Point","coordinates":[-87.673653,42.058377]}, "properties":{"name":"Northwestern University","addr":"633 Clark St","city":"Evanston","state":"IL","zip_code":"60208","website":"www.northwestern.edu","price_calc":"ug-finaid.northwestern.edu/college_cost_calculator.html","dept_site":"http://eecs.northwestern.edu/","total_cs_fac":"59"}},
{"type":"Feature","id":"152080","geometry":{"type":"Point","coordinates":[-86.238959,41.703058]}, "properties":{"name":"University of Notre Dame","addr":"400 Main Building","city":"Notre Dame","state":"IN","zip_code":"46556","website":1,"price_calc":"admissions.nd.edu/onlineapplication","dept_site":"https://cse.nd.edu/","total_cs_fac":"16"}},
{"type":"Feature","id":"162928","geometry":{"type":"Point","coordinates":[-76.620799,39.328380]}, "properties":{"name":"Johns Hopkins University","addr":"3400 N Charles St Mason Hall","city":"Baltimore","state":"MD","zip_code":"21218-2688","website":"www.jhu.edu","price_calc":"npc.collegeboard.org/student/app/jhu","dept_site":"https://www.cs.jhu.edu/","total_cs_fac":"29"}},
{"type":"Feature","id":"163286","geometry":{"type":"Point","coordinates":[-76.939704,38.988607]}, "properties":{"name":"University of Maryland-College Park","addr":" ","city":"College Park","state":"MD","zip_code":"20742","website":"www.umd.edu","price_calc":"npc.collegeboard.org/student/app/umd","dept_site":"https://www.cs.umd.edu/","total_cs_fac":"60"}},
{"type":"Feature","id":"164988","geometry":{"type":"Point","coordinates":[-71.099840,42.349581]}, "properties":{"name":"Boston University","addr":"One Silber Way","city":"Boston","state":"MA","zip_code":"02215","website":"www.bu.edu","price_calc":"www.bu.edu/finaid/eligibility/calculated_need.html","dept_site":"http://www.bu.edu/cs/","total_cs_fac":"20"}},
{"type":"Feature","id":"166027","geometry":{"type":"Point","coordinates":[-71.118177,42.374429]}, "properties":{"name":"Harvard University","addr":"Massachusetts Hall","city":"Cambridge","state":"MA","zip_code":"02138","website":"www.harvard.edu","price_calc":"npc.fas.harvard.edu","dept_site":"http://www.seas.harvard.edu/computer-science","total_cs_fac":"25"}},
{"type":"Feature","id":"166629","geometry":{"type":"Point","coordinates":[-72.526130,42.386105]}, "properties":{"name":"University of Massachusetts-Amherst","addr":"374 Whitmore Building 181 Presidents Drive","city":"Amherst","state":"MA","zip_code":"01003","website":"www.umass.edu","price_calc":"www.umass.edu/umfa/netprice/npcalc.htm","dept_site":"https://www.cs.umass.edu/","total_cs_fac":"37"}},
{"type":"Feature","id":"166683","geometry":{"type":"Point","coordinates":[-71.092115,42.360095]}, "properties":{"name":"Massachusetts Institute of Technology","addr":"77 Massachusetts Avenue","city":"Cambridge","state":"MA","zip_code":"02139-4307","website":"web.mit.edu/student/","price_calc":"web.mit.edu/sfs/afford/financial_aid_calculator.html","dept_site":"https://www.eecs.mit.edu","total_cs_fac":"80"}},
{"type":"Feature","id":"170976","geometry":{"type":"Point","coordinates":[-83.743130,42.276172]}, "properties":{"name":"University of Michigan-Ann Arbor","addr":"503 Thompson Street","city":"Ann Arbor","state":"MI","zip_code":"48109","website":"www.umich.edu","price_calc":"www.finaid.umich.edu/TopNav/Resources/MCalc.aspx","dept_site":"https://www.eecs.umich.edu/","total_cs_fac":"59"}},
{"type":"Feature","id":"174066","geometry":{"type":"Point","coordinates":[-93.235352,44.977886]}, "properties":{"name":"University of Minnesota-Twin Cities","addr":"100 Church Street SE","city":"Minneapolis","state":"MN","zip_code":"55455-0213","website":"www1.umn.edu/twincities/index.php","price_calc":"npc.collegeboard.org/student/app/tcumn","dept_site":"https://www.cs.umn.edu/","total_cs_fac":"34"}},
{"type":"Feature","id":"179867","geometry":{"type":"Point","coordinates":[-90.311639,38.648125]}, "properties":{"name":"Washington University in St Louis","addr":"One Brookings Drive","city":"Saint Louis","state":"MO","zip_code":"63130-4899","website":"www.wustl.edu","price_calc":"sfs.wustl.edu","dept_site":"http://cse.wustl.edu/Pages/default.aspx","total_cs_fac":"21"}},
{"type":"Feature","id":"182670","geometry":{"type":"Point","coordinates":[-72.289951,43.70408]}, "properties":{"name":"Dartmouth College","addr":"207 Parkhurst Hall","city":"Hanover","state":"NH","zip_code":"03755-3529","website":"www.dartmouth.edu","price_calc":"www.dartmouth.edu/~finaid/fao/need/parent.html","dept_site":"http://web.cs.dartmouth.edu/","total_cs_fac":"12"}},
{"type":"Feature","id":"186131","geometry":{"type":"Point","coordinates":[-74.663708,40.348496]}, "properties":{"name":"Princeton University","addr":"1 Nassau Hall","city":"Princeton","state":"NJ","zip_code":"08544-0070","website":"www.princeton.edu","price_calc":"www.princeton.edu/admission/financialaid/estimator/","dept_site":"https://www.cs.princeton.edu/","total_cs_fac":"32"}},
{"type":"Feature","id":"186380","geometry":{"type":"Point","coordinates":[-74.450510,40.503796]}, "properties":{"name":"Rutgers University-New Brunswick","addr":"83 Somerset St","city":"New Brunswick","state":"NJ","zip_code":"08901-1281","website":"www.rutgers.edu/","price_calc":"studentaid.rutgers.edu/npc/","dept_site":"https://www.cs.rutgers.edu/","total_cs_fac":"39"}},
{"type":"Feature","id":"190150","geometry":{"type":"Point","coordinates":[-73.961885,40.808286]}, "properties":{"name":"Columbia University in the City of New York","addr":"West 116 St and Broadway","city":"New York","state":"NY","zip_code":"10027","website":"www.columbia.edu","price_calc":"www.studentaffairs.columbia.edu/finaid/npc","dept_site":"http://www.cs.columbia.edu/","total_cs_fac":"48"}},
{"type":"Feature","id":"190415","geometry":{"type":"Point","coordinates":[-76.482690,42.445291]}, "properties":{"name":"Cornell University","addr":"300 Day Hall","city":"Ithaca","state":"NY","zip_code":"14853","website":"www.cornell.edu","price_calc":"cornell.studentaidcalculator.com/survey.aspx","dept_site":"https://www.cs.cornell.edu/","total_cs_fac":"36"}},
{"type":"Feature","id":"193900","geometry":{"type":"Point","coordinates":[-73.997264,40.729452]}, "properties":{"name":"New York University","addr":"70 Washington Sq South","city":"New York","state":"NY","zip_code":"10012-1091","website":"www.nyu.edu","price_calc":"www.nyu.edu/admissions/financial-aid-and-scholarships/financial-aid-calculator.html","dept_site":"https://cs.nyu.edu/web/index.html","total_cs_fac":"37"}},
{"type":"Feature","id":"194824","geometry":{"type":"Point","coordinates":[-73.678768,42.728983]}, "properties":{"name":"Rensselaer Polytechnic Institute","addr":"110 8th St","city":"Troy","state":"NY","zip_code":"12180-3590","website":"www.rpi.edu","price_calc":"www.rpi.edu/npc/","dept_site":"https://www.cs.rpi.edu/","total_cs_fac":"29"}},
{"type":"Feature","id":"95030","geometry":{"type":"Point","coordinates":[-77.631042,43.126437]}, "properties":{"name":"University of Rochester","addr":"Wilson Blvd. - Wallis Hall","city":"Rochester","state":"NY","zip_code":"14627-0011","website":"www.rochester.edu","price_calc":"enrollment.rochester.edu/financial/estimator/","dept_site":"https://www.cs.rochester.edu/","total_cs_fac":"20"}},
{"type":"Feature","id":"196097","geometry":{"type":"Point","coordinates":[-73.123595,40.913138]}, "properties":{"name":"Stony Brook University","addr":"310 Administration Building","city":"Stony Brook","state":"NY","zip_code":"11794","website":"www.stonybrook.edu","price_calc":"www.stonybrook.edu/finaid/","dept_site":"https://www.cs.stonybrook.edu/","total_cs_fac":"37"}},
{"type":"Feature","id":"198419","geometry":{"type":"Point","coordinates":[-78.942260,36.001590]}, "properties":{"name":"Duke University","addr":"103 Allen Bldg","city":"Durham","state":"NC","zip_code":"27708","website":"WWW.DUKE.EDU","price_calc":"npc.collegeboard.org/student/app/duke","dept_site":"http://www.cs.duke.edu/","total_cs_fac":"52"}},
{"type":"Feature","id":"199120","geometry":{"type":"Point","coordinates":[-79.050969,35.912165]}, "properties":{"name":"University of North Carolina at Chapel Hill","addr":"103 South Bldg Cb 9100","city":"Chapel Hill","state":"NC","zip_code":"27599","website":"www.unc.edu","price_calc":"npc.collegeboard.org/student/app/unc","dept_site":"http://cs.unc.edu/","total_cs_fac":"31"}},
{"type":"Feature","id":"199193","geometry":{"type":"Point","coordinates":[-78.674517,35.785111]}, "properties":{"name":"North Carolina State University at Raleigh","addr":"2101 Hillsborough Street","city":"Raleigh","state":"NC","zip_code":"27695-7001","website":"www.ncsu.edu","price_calc":"www.collegeportraits.org/NC/NC-State/estimator/agree","dept_site":"https://www.csc.ncsu.edu/","total_cs_fac":"47"}},
{"type":"Feature","id":"204796","geometry":{"type":"Point","coordinates":[-83.009001,39.998389]}, "properties":{"name":"Ohio State University-Main Campus","addr":"190 N. Oval Mall","city":"Columbus","state":"OH","zip_code":"43210","website":"www.osu.edu","price_calc":"sfa.osu.edu/npc/","dept_site":"https://cse.osu.edu/","total_cs_fac":"38"}},
{"type":"Feature","id":"211440","geometry":{"type":"Point","coordinates":[-79.942914,40.444616]}, "properties":{"name":"Carnegie Mellon University","addr":"5000 Forbes Avenue","city":"Pittsburgh","state":"PA","zip_code":"15213-3890","website":"www.cmu.edu/","price_calc":"admission.enrollment.cmu.edu/pages/financial-aid-estimator","dept_site":"https://www.scs.cmu.edu/","total_cs_fac":"131"}},
{"type":"Feature","id":"214777","geometry":{"type":"Point","coordinates":[-77.861644,40.800732]}, "properties":{"name":"Pennsylvania State University-Main Campus","addr":"201 Old Main","city":"University Park","state":"PA","zip_code":"16802-1503","website":"www.psu.edu/","price_calc":"tuition.psu.edu/costestimate.aspx","dept_site":"https://www.cse.psu.edu/","total_cs_fac":"33"}},
{"type":"Feature","id":"215062","geometry":{"type":"Point","coordinates":[-75.193618,39.951002]}, "properties":{"name":"University of Pennsylvania","addr":"34th and Spruce Street","city":"Philadelphia","state":"PA","zip_code":"19104-6303","website":"www.upenn.edu","price_calc":"npc.collegeboard.org/student/app/upenn","dept_site":"http://www.cis.upenn.edu/index.php","total_cs_fac":"31"}},
{"type":"Feature","id":"215293","geometry":{"type":"Point","coordinates":[-79.954692,40.444502]}, "properties":{"name":"University of Pittsburgh-Pittsburgh Campus","addr":"4200 Fifth Avenue","city":"Pittsburgh","state":"PA","zip_code":"15260","website":"www.pitt.edu","price_calc":"www.npc.pitt.edu/pittsburgh/npcalc.htm","dept_site":"https://www.cs.pitt.edu/","total_cs_fac":"20"}},
{"type":"Feature","id":"217156","geometry":{"type":"Point","coordinates":[-71.404467,41.827605]}, "properties":{"name":"Brown University","addr":"One Prospect Street","city":"Providence","state":"RI","zip_code":"02912","website":"www.brown.edu","price_calc":"npc.collegeboard.org/student/app/brown","dept_site":"https://cs.brown.edu/","total_cs_fac":"30"}},
{"type":"Feature","id":"227757","geometry":{"type":"Point","coordinates":[-95.403625,29.716485]}, "properties":{"name":"Rice University","addr":"6100 S Main","city":"Houston","state":"TX","zip_code":"77005-1827","website":"www.rice.edu","price_calc":"rice.studentaidcalculator.com/survey.aspx","dept_site":"http://www.cs.rice.edu/","total_cs_fac":"20"}},
{"type":"Feature","id":"228723","geometry":{"type":"Point","coordinates":[-96.340322,30.613226]}, "properties":{"name":"Texas A & M University-College Station","addr":"805 Rudder Tower","city":"College Station","state":"TX","zip_code":"77843-1244","website":"www.tamu.edu","price_calc":"www.collegeforalltexans.com/apps/CollegeMoney/","dept_site":"http://engineering.tamu.edu/cse/","total_cs_fac":"42"}},
{"type":"Feature","id":"228778","geometry":{"type":"Point","coordinates":[-97.737279,30.284733]}, "properties":{"name":"The University of Texas at Austin","addr":"2400 Inner Campus Drive","city":"Austin","state":"TX","zip_code":"78712","website":"http://www.utexas.edu/","price_calc":"bealonghorn.utexas.edu/services/apply/apply/index.html","dept_site":"https://www.cs.utexas.edu/","total_cs_fac":"38"}},
{"type":"Feature","id":"230764","geometry":{"type":"Point","coordinates":[-111.846044,40.762484]}, "properties":{"name":"University of Utah","addr":"201 Presidents Circle ROOM 203","city":"Salt Lake City","state":"UT","zip_code":"84112-9008","website":"www.utah.edu","price_calc":"www.obia.utah.edu/content/vsa_ccc/npcalc.htm","dept_site":"http://www.cs.utah.edu/","total_cs_fac":"45"}},
{"type":"Feature","id":"233921","geometry":{"type":"Point","coordinates":[-80.423267,37.228561]}, "properties":{"name":"Virginia Polytechnic Institute and State University","addr":"222 Burruss Hall","city":"Blacksburg","state":"VA","zip_code":"24061-0131","website":"WWW.VT.EDU","price_calc":"www.apps.finaid.vt.edu/apps/NPC/npcalc.htm","dept_site":"https://www.cs.vt.edu/","total_cs_fac":"39"}},
{"type":"Feature","id":"234076","geometry":{"type":"Point","coordinates":[-78.502599,38.036546]}, "properties":{"name":"University of Virginia-Main Campus","addr":"1827 University Avenue","city":"Charlottesville","state":"VA","zip_code":"22903-2628","website":"www.virginia.edu/","price_calc":"npc.collegeboard.org/student/app/virginia","dept_site":"https://www.cs.virginia.edu/","total_cs_fac":"23"}},
{"type":"Feature","id":"236948","geometry":{"type":"Point","coordinates":[-122.313115,47.656213]}, "properties":{"name":"University of Washington-Seattle Campus","addr":"1400 NE Campus Parkway","city":"Seattle","state":"WA","zip_code":"98195-4550","website":"www.washington.edu","price_calc":"www.washington.edu/students/osfa/prospectiveug/aid.est.1.html","dept_site":"https://www.cs.washington.edu/","total_cs_fac":"49"}},
{"type":"Feature","id":"240444","geometry":{"type":"Point","coordinates":[-89.405356,43.073858]}, "properties":{"name":"University of Wisconsin-Madison","addr":"500 Lincoln Dr","city":"Madison","state":"WI","zip_code":"53706-1380","website":"www.wisc.edu","price_calc":"www.finaid.wisc.edu/award-estimator.php","dept_site":"https://www.cs.wisc.edu/","total_cs_fac":"38"}},
{"type":"Feature","id":"243744","geometry":{"type":"Point","coordinates":[-122.182212,37.431746]}, "properties":{"name":"Stanford University","addr":" ","city":"Stanford","state":"CA","zip_code":"94305","website":"www.stanford.edu/","price_calc":"www.stanford.edu/dept/finaid/undergrad/how/calculator/","dept_site":"http://www-cs.stanford.edu/","total_cs_fac":"51"}},
{"type":"Feature","id":"243780","geometry":{"type":"Point","coordinates":[-86.914435,40.428206]}, "properties":{"name":"Purdue University-Main Campus","addr":"Hovde Hall of Administration","city":"West Lafayette","state":"IN","zip_code":"47907-2040","website":"www.purdue.edu","price_calc":"www.purdue.edu/DFA/estimator","dept_site":"https://www.cs.purdue.edu/","total_cs_fac":"48"}}
]}